 [
  {
    "title": "OldBoy KLD",
    "lat": "54.717592",
    "lng": "20.497258",
    "img": "oldboy_logo.svg",
    "address": "ул. Театральная 30",
    "city": "Калининград",
    "phone": "52-57-90",
    "id": "1"
  },
  {
    "title": "OldBoy ART",
    "lat": "54.731643",
    "lng": "20.540196",
    "img": "oldboy_logo.svg",
    "address": "ул. Артиллерийская, 22",
    "city": "Калининград",
    "phone": "52-59-59",
    "id": "2"
  },
  {
    "title": "OldBoy Мытищи",
    "lat": "55.923260",
    "lng": "37.717323",
    "img": "oldboy_logo.svg",    
    "address": "ул. Колпакова, 41",
    "city": "Мытищи",
    "phone": "+8(495)-767-7631",
    "id": "3"
  },
  {
    "title":"OldBoy Питер",
    "lat": "59.914332",
    "lng":"30.305436",
    "img": "oldboy_logo.svg",    
    "address": "ул. 8-я Красноармейская, 4/5",
    "city": "Санкт-Петербург",
    "phone": "+7-406-867",
    "id": "4"
  },
  {
    "title":"OldBoy Ривьера",
    "lat":"55.704918",
    "lng":"37.640571",
    "img": "oldboy_logo.svg",    
    "WorkTime": "9:00 - 21:00",
    "address": "Автозаводская, 18",
    "city": "Москва",
    "phone": "+8(495)-502-69-17",
    "id": "5"
  },
  {
    "title":"OldBoy Красноярск",
    "lat":"56.023366",
    "lng":"92.814372",
    "description":"Стрижки Красноярск",
    "img": "oldboy_logo.svg",    
    "WorkTime": "9:00 - 21:00",
    "address": "Пр. Свободный, 53",
    "city": "Красноярск",
    "phone": "+(278)-66-88",
    "id": "7"
  },
  {
    "title":"OldBoy Кипр",
    "lat":"34.917707",
    "lng":"33.635566",
    "img": "oldboy_logo.svg",    
    "WorkTime": "9:00 - 21:00",
    "address": "13-15 Grigori Afxentiuo",
    "city": "Лимассол",
    "phone": "+(357)-967-772-70",
    "id": "8"
  },
  {
    "title":"OldBoy Сочи",
    "lat":"43.587030",
    "lng":"39.720644",
    "description":"Стрижки Сочи",
    "WorkTime": "9:00 - 21:00",
    "address": "ул. Воровского, 18",
    "city": "Сочи",
    "phone": "+8(988)-234-74-94",
    "id": "9"
  },
  {
    "title":"OldBoy Нижний",
    "lat":"56.315777",
    "lng":"44.014029",
    "description":"Стрижки Нижний Новгород",
    "WorkTime": "9:00 - 21:00",
    "address": "ул. Белинского, 102",
    "city": "Нижний Новгород",
    "phone": "+8(952)-771-01-20",
    "id": "10"
  },
  {
    "title":"OldBoy Минск",
    "lat":"53.932399",
    "lng":"27.655136",
    "description":"Стрижки Минск",
    "WorkTime": "9:00 - 21:00",
    "address": "ул. Туровского, 8",
    "city": "Минск",
    "phone": "+(375)-298-950-920",
    "id": "11"
  },
  {
    "title":"OldBoy Владивосток",
    "lat":"43.121416",
    "lng":"131.887643",
    "address": "Океанский проспект, 30",
    "city": "Владивосток",
    "phone": "+(899)-401-098-58",
    "id": "12"
  },
  {
    "title":"OldBoy Краснодар ",
    "lat":"45.036177",
    "lng":"38.981322",
    "address": "ул. Седина 150/5",
    "city": "Краснодар",
    "phone": "8(918)-170-10-40",
    "id": "13"
  },
  {
    "title":"OldBoy Краснодар ",
    "lat":"45.021542",
    "lng":"38.960335",
    "address": "Кубанская наб., 64",
    "city": "Краснодар",
    "phone": "8(918)-170-44-00",
    "id": "14"
  },
  {
    "title":"OldBoy Новороссийск",
    "lat":"44.722181",
    "lng":"37.773188",
    "address": "ул. Свободы, 3/5",
    "city": "Новороссийск",
    "phone": "8(918)-170-01-15",
    "id": "15"
  },
  {
    "title":"OldBoy Самара",
    "lat":"53.211766",
    "lng":"50.139829",
    "address": "ул. Ново-Садовая, 27",
    "city": "Самара",
    "phone": "8(846)-231-33-54",
    "id": "16"
  },
  {
    "title":"OldBoy Омск",
    "lat":"54.984738",
    "lng":"73.374646",
    "address": "ул. Ленина, 14",
    "city": "Омск",
    "phone": "8(3812)-34-41-53",
    "id": "17"
  },
  {
    "title":"OldBoy Волжский",
    "lat":"48.783555",
    "lng":"44.784075",
    "address": "площадь Труда, 19",
    "city": "Волжский",
    "phone": "8(909)-387-00-33",
    "id": "18"
  },
  {
    "title":"OldBoy Екатеринбург",
    "lat":"56.795609",
    "lng":"60.622693",
    "address": "ул. Академика Шварца, 14",
    "city": "Екатеринбург",
    "phone": "8(343)-219-19-09",
    "id": "19"
  },
  {
    "title":"OldBoy Красноярск",
    "lat":"56.043616",
    "lng":"92.907512",
    "address": "ул. 78 добровольческой бригады, 15",
    "city": "Красноярск",
    "phone": "206-99-088",
    "id": "20"
  },
  {
    "title":"OldBoy Петропавловск-Камчатский",
    "lat":"53.060344",
    "lng":"158.631104",
    "address": "ул. Тушкванова, 4",
    "city": "Петропавловск-Камчатский",
    "phone": "31-33-22",
    "id": "21"
  },
  {
    "title":"OldBoy Находка",
    "lat":"42.780697",
    "lng":"132.851963",
    "address": "ул. Спортивная, 2",
    "city": "Находка",
    "phone": "79-85-99",
    "id": "22"
  },
  {
    "title":"OldBoy Севастополь",
    "lat":"44.603121",
    "lng":"33.531657",
    "address": "ул. Очаковцев, 19",
    "city": "Севастополь",
    "phone": "8(978)-213-66-56",
    "id": "23"
  },
  {
    "title":"OldBoy Харьков",
    "lat":"50.016568",
    "lng":"36.228725",
    "address": "ул. Бакулина, 13",
    "city": "Харьков",
    "phone": "+(380)-67-010-11-77",
    "id": "24"
  },
  {
    "title":"OldBoy Санкт-Петербург",
    "lat":"59.922347",
    "lng":"30.329679",
    "address": "пр. Московский, 6",
    "city": " Санкт-Петербург",
    "phone": "8(812)-671-04-60",
    "id": "25"
  },
  {
    "title":"OldBoy Новосибирск",
    "lat":"55.031814",
    "lng":"82.927779",
    "address": "ул. Каменская, 23",
    "city": "Новосибирск",
    "phone": "8(383)-207-85-88",
    "id": "26"
  },
  {
    "title":"OldBoy Владикавказ",
    "lat":"43.017384",
    "lng":"44.668398",
    "address": "ул. Ген. Плиева, 54",
    "city": "Владикавказ",
    "phone": "99-66-68",
    "id": "27"
  },
  {
    "title":"OldBoy Москва",
    "lat":"55.831201",
    "lng":"37.445987",
    "address": "ул. Вишневая, 9К.1",
    "city": "Москва",
    "phone": "8(925)-000-12-01",
    "id": "28"
  },
  {
    "title":"OldBoy Алматы",
    "lat":"43.222155",
    "lng":"76.961680",
    "address": "пр. Достык 111/4",
    "city": "Алматы",
    "phone": "8(747)-666-91-69",
    "id": "29"
  },
  {
    "title":"OldBoy Гомель",
    "lat":"52.422778",
    "lng":"31.002027",
    "address": "ул. Гагарина, 57",
    "city": "Гомель",
    "phone": "+(375)-29-357-00-44",
    "id": "30"
  },
  {
    "title":"OldBoy Пермь",
    "lat":"58.005652",
    "lng":"56.199162",
    "address": "ул. Петропавловская, 82",
    "city": "Пермь",
    "phone": "278-72-27",
    "id": "31"
  },
  {
    "title":"OldBoy Рязань",
    "lat":"54.622727",
    "lng":"39.739078",
    "address": "ул. Маяковского, 49",
    "city": "Рязань",
    "phone": "8(4912)-52-25-63",
    "id": "32"
  },
  {
    "title":"OldBoy Норильск",
    "lat":"69.343540",
    "lng":"88.208653",
    "address": "пр. Ленинский, 5",
    "city": "Норильск",
    "phone": "36-04-06",
    "id": "33"
  },
  {
    "title":"OldBoy Кемерово",
    "lat":"55.358752",
    "lng":"86.076426",
    "address": "ул. Кирова, 27",
    "city": "Кемерово",
    "phone": "8(3842)-59-88-08",
    "id": "34"
  },
  {
    "title":"OldBoy Тольятти",
    "lat":"53.548110",
    "lng":"49.334407",
    "address": "ул. Южное шоссе, 67г",
    "city": "Тольятти",
    "phone": "8(848)-278-22-38",
    "id": "35"
  },
  {
    "title":"OldBoy Казань",
    "lat":"55.814298",
    "lng":"449.134723",
    "address": "ул. Сибгата Хакима, д. 42",
    "city": "Казань",
    "phone": "8(987)-226-98-00",
    "id": "36"
  },
  {
    "title":"OldBoy Зеленоград",
    "lat":"55.977241",
    "lng":"37.153940",
    "address": "пр. Панфиловский, 1539",
    "city": "Зеленоград",
    "phone": "8(915)-337-41-99",
    "id": "37"
  },
  {
    "title":"OldBoy Тамбов",
    "lat":"52.736497",
    "lng":"41.451337",
    "address": "ул. Советская, 156",
    "city": "Тамбов",
    "phone": "48-33-33",
    "id": "38"
  },
  {
    "title":"OldBoy Тюмень",
    "lat":"57.145065",
    "lng":"65.542849",
    "address": "ул. Мориса Тореза 12А",
    "city": "Тюмень",
    "phone": "8(932)-32-155-37",
    "id": "39"
  },
  {
    "title":"OldBoy Ильинское",
    "lat":"55.761200",
    "lng":"37.242983",
    "address": "ул. Ленина, 30",
    "city": "Московская область",
    "phone": "8(925)-069-65-65",
    "id": "40"
  },  
  {
    "title":"OldBoy Москва",
    "lat":"55.754004",
    "lng":"37.710171",
    "address": "ул. Красноказарменная, 19",
    "city": "Москва",
    "phone": "8(977)-165-67-12",
    "id": "41"
  },
  {
    "title":"OldBoy Ростов-на-Дону",
    "lat":"47.230369",
    "lng":"39.725098",
    "address": "ул. Красноармейская, 210",
    "city": "Ростов-на-Дону",
    "phone": "301-31-51",
    "id": "42"
  },
  {
    "title":"OldBoy Калуга",
    "lat":"54.492193",
    "lng":"36.214562",
    "address": "ул. Генерала Поповаm, 8A",
    "city": "Калуга",
    "phone": "8(920)-885-45-45",
    "id": "43"
  },
  {
    "title":"OldBoy Реутов",
    "lat":"55.750608",
    "lng":"37.871340",
    "address": "пр. Юбилейный, 40",
    "city": "Московская область",
    "phone": "8(929)-956-91-31",
    "id": "44"
  },
  {
    "title":"OldBoy Белгород",
    "lat":"50.567643",
    "lng":"36.579956",
    "address": "ул. Губкина, 38Б",
    "city": "Белгород",
    "phone": "40-88-08",
    "id": "45"
  },
  {
    "title":"OldBoy Санк-Петербург",
    "lat":"59.949085",
    "lng":"30.361801",
    "address": "ул. Воскова, 16",
    "city": "Санк-Петербург",
    "phone": "403-01-73",
    "id": "46"
  },
  {
    "title":"OldBoy Москва",
    "lat":"55.718026",
    "lng":"37.618493",
    "address": "ул. Мытная, 52",
    "city": "Москва",
    "phone": "8(929)-570-96-96",
    "id": "47"
  },
  {
    "title":"OldBoy Москва",
    "lat":"55.677144",
    "lng":"37.536944",
    "address": "ул. Гарибальди, 7",
    "city": "Москва",
    "phone": "8(925)-822-62-83",
    "id": "48"
  },
  {
    "title":"OldBoy Подольск",
    "lat":"55.431970",
    "lng":"37.549784",
    "address": "ул. Февральская, 52",
    "city": "Московская область",
    "phone": "8(926)-277-22-92",
    "id": "49"
  },
  {
    "title":"OldBoy Новый Уренгой",
    "lat":"66.095686",
    "lng":"76.656352",
    "address": "пр. Энтузиастов 1",
    "city": "Новый Уренгой",
    "phone": "8(3494)-91-32-33",
    "id": "50"
  },
  {
    "title":"OldBoy Жуковский",
    "lat":"55.631585",
    "lng":"38.048168",
    "address": "ул. Солнечная 19",
    "city": "Московская область",
    "phone": "8(985)-087-33-56",
    "id": "51"
  },
  {
    "title":"OldBoy Москва",
    "lat":"55.823111",
    "lng":"37.659206",
    "address": "ул. Бориса Галушкина 17",
    "city": "Москва",
    "phone": "8(999)-999-62-79",
    "id": "52"
  },
  {
    "title":"OldBoy Балашиха",
    "lat":"55.814610",
    "lng":"37.954939",
    "address": "ул. Советская, д. 42",
    "city": "Московская область",
    "phone": "8(966)-33-88-333",
    "id": "53"
  },
  {
    "title":"OldBoy Балаково",
    "lat":"52.016686",
    "lng":"47.818135",
    "address": "ул. Трнавская, 6",
    "city": "Балаково",
    "phone": "8(927)-164-164-9",
    "id": "54"
  },
  {
    "title":"OldBoy Якутск",
    "lat":"62.045174",
    "lng":"129.725024",
    "address": "ул. Пирогова, 6",
    "city": "Якутск",
    "phone": "250-557",
    "id": "55"
  },
  {
    "title":"OldBoy Санкт-Петербург",
    "lat":"59.929071",
    "lng":"30.357714",
    "address": "ул. Пушкинская, 12",
    "city": "Санкт-Петербург",
    "phone": "8(931)-256-24-41",
    "id": "56"
  },
  {
    "title":"OldBoy Уфа",
    "lat":"54.737310",
    "lng":"55.952529",
    "address": "ул. Ленина, 65",
    "city": "Уфа",
    "phone": "8(931)-256-24-41",
    "id": "57"
  },
  {
    "title":"OldBoy Клин",
    "lat":"56.330036",
    "lng":"36.731446",
    "address": "ул. Спортивная 15/1",
    "city": "Клин",
    "phone": "8(999)-80-99-666",
    "id": "58"
  },
  {
    "title":"OldBoy Альметьевск",
    "lat":"54.901473",
    "lng":"52.296141",
    "address": "ул. Ленина 4/5",
    "city": "Альметьевск",
    "phone": "8(917)-852-25-25",
    "id": "59"
  },
  {
    "title":"OldBoy Санкт-Петербург",
    "lat":"59.943769",
    "lng":"30.354162",
    "address": "ул. Кирочная 9",
    "city": "Санкт-Петербург",
    "phone": "981-29-40",
    "id": "60"
  },
  {
    "title":"OldBoy Раменское",
    "lat":"55.570072",
    "lng":"38.228140",
    "address": "ул. Карла Маркса 8",
    "city": "Московская область",
    "phone": "8(966)-3-500-500",
    "id": "61"
  },
  {
    "title":"OldBoy Москва",
    "lat":"55.742617",
    "lng":"37.546129",
    "address": "ул. Студентческая 26",
    "city": "Москва",
    "phone": "8(985)-519-24-99",
    "id": "62"
  },
  {
    "title":"OldBoy Люберцы",
    "lat":"55.685655",
    "lng":"37.908744",
    "address": "пр. Комсомольский, 7/11",
    "city": "Московская область",
    "phone": "8(925)-070-22-88",
    "id": "63"
  },
  {
    "title":"OldBoy Санкт-Петербург",
    "lat":"55.742617",
    "lng":"37.546129",
    "address": "наб. Грибоедова, 10",
    "city": "Санкт-Петербург",
    "phone": "8(812)-903-57-54",
    "id": "64"
  },
  {
    "title":"OldBoy Москва",
    "lat":"55.653951",
    "lng":"37.408519",
    "address": "ул. Главмосстроя, 12",
    "city": "Москва",
    "phone": "8(977)-503-71-01",
    "id": "65"
  },
  {
    "title":"OldBoy Видное",
    "lat":"55.536077",
    "lng":"37.739335",
    "address": "ул. Завидная, 10",
    "city": "Московская область",
    "phone": "8(498)-767-57-01",
    "id": "66"
  },
  {
    "title":"OldBoy Минск",
    "lat":"53.932399",
    "lng":"27.655136",
    "address": "ул. Туровского, 8",
    "city": "Минск",
    "phone": "+(375)-29-895-09-20",
    "id": "67"
  },
  {
    "title":"OldBoy Ноябрьск",
    "lat":"63.199820",
    "lng":"75.448614",
    "address": "ул. Дзержинского, 28А",
    "city": "Ноябрьск",
    "phone": "8(349)-643-01-01",
    "id": "68"
  },
  {
    "title":"OldBoy Санкт-Петербург",
    "lat":"59.851605",
    "lng":"30.479089ы",
    "address": "пр. Обуховской обороны, 271А",
    "city": "Санкт-Петербург",
    "phone": "8(349)-643-01-01",
    "id": "69"
  },
  {
    "title":"OldBoy Москва(Новослободская)",
    "lat":"55.787556",
    "lng":"37.593764",
    "address": "ул. Новослободская, 52",
    "city": "Москва",
    "phone": "8(915)-066-66-67",
    "id": "70"
  },
  {
    "title":"OldBoy Чебоксары",
    "lat":"56.137453",
    "lng":"47.250435",
    "address": "ул. Ярославская, 58",
    "city": "Чебоксары",
    "phone": "375-475",
    "id": "70"
  },
  {
    "title":"OldBoy Щелково",
    "lat":"55.898055",
    "lng":"38.064833",
    "address": "ул. Радиоцентра 5, 16",
    "city": "Московская область",
    "phone": "375-475",
    "id": "71"
  },
  {
    "title":"OldBoy Москва",
    "lat":"55.758942",
    "lng":"37.787284",
    "address": "ул. 3-ая Владимирская 20",
    "city": "Москва",
    "phone": "8(499)-781-14-56",
    "id": "72"
  },
  {
    "title":"OldBoy Москва",
    "lat":"55.607288",
    "lng":"37.645975",
    "address": "ул. 6-ая Радикальная, д. 5",
    "city": "Москва",
    "phone": "8(910)-483-22-44",
    "id": "73"
  },
  {
    "title":"OldBoy Воскресенк",
    "lat":"55.322246",
    "lng":"38.676416",
    "address": "ул. Октябрьская, д. 6",
    "city": "Воскресенк",
    "phone": "8(499)-781-14-56",
    "id": "74"
  },
  {
    "title":"OldBoy Москва",
    "lat":"55.649663",
    "lng":"37.769271",
    "address": "ул. Поречная, д. 10",
    "city": "Москва",
    "phone": "8(900)-555-77-10",
    "id": "75"
  },
  {
    "title":"OldBoy Серпухов",
    "lat":"54.914457",
    "lng":"37.416410",
    "address": "пл. Ленина, д. 4",
    "city": "Московская область",
    "phone": "8(925)-335-55-25",
    "id": "76"
  },
  {
    "title":"OldBoy Хабаровск",
    "lat":"48.490301",
    "lng":"135.082185",
    "address": "ул. Ким Ю Чена, д. 44",
    "city": "Хабаровск",
    "phone": "77-82-17",
    "id": "77"
  },
  {
    "title":"OldBoy Москва",
    "lat":"55.808781",
    "lng":"37.493279",
    "address": "ш. Волокамское, 15/22",
    "city": "Москва",
    "phone": "8(968)-626-27-46",
    "id": "78"
  },
  {
    "title":"OldBoy Красногорск",
    "lat":"55.811812",
    "lng":"37.369442",
    "address": "Павшинский бульвар, 17",
    "city": "Московская область",
    "phone": "8(985)-643-41-41",
    "id": "79"
  },
  {
    "title":"OldBoy Москва",
    "lat":"55.737257",
    "lng":"37.649581",
    "address": "Гончарная набережная, 9/16 C2",
    "city": "Москва",
    "phone": "8(495)-920-33-45",
    "id": "80"
  },
  {
    "title":"OldBoy Москва",
    "lat":"55.677669",
    "lng":"37.498919",
    "address": "ул. Удальцова, 71 К2",
    "city": "Москва",
    "phone": "8(925)-077-47-97",
    "id": "81"
  },
  {
    "title":"OldBoy Брянск",
    "lat":"55.677669",
    "lng":"37.498919",
    "address": "ул. Дукки, 51",
    "city": "Брянск",
    "phone": "8(483)-240-70-40",
    "id": "82"
  },
  {
    "title":"OldBoy Чехов",
    "lat":"55.142622",
    "lng":"37.467016",
    "address": "ул. Дружбы, 22А",
    "city": "Московская область",
    "phone": "8(967)-014-60-60",
    "id": "83"
  },
  {
    "title":"OldBoy Караганда",
    "lat":"49.815923",
    "lng":"73.097462",
    "address": "Бульвар Мира, 29",
    "city": "Караганда",
    "phone": "8(778)-758-58-58",
    "id": "84"
  },
  {
    "title":"OldBoy Химки",
    "lat":"55.941804",
    "lng":"37.287947",
    "address": "ул. Калинина, 7",
    "city": "Московская область",
    "phone": "8(903)-100-80-55",
    "id": "85"
  },
  {
    "title":"OldBoy Ногинск",
    "lat":"55.852908",
    "lng":"38.446914",
    "address": "ул. Комсомольская 26",
    "city": "Московская область",
    "phone": "8(965)-171-11-15",
    "id": "86"
  },
  {
    "title":"OldBoy Санкт-Петербург",
    "lat":"59.999351",
    "lng":"30.217316",
    "address": "ул. Оптиков, 34",
    "city": "Санкт-Петербург",
    "phone": "8(812)-920-06-43",
    "id": "87"
  },
  {
    "title":"OldBoy Орехово-Зуево",
    "lat":"55.804251",
    "lng":"38.974977",
    "address": "ул. Якова Флиера, 7",
    "city": "Московская область",
    "phone": "8(977)-900-11-01",
    "id": "88"
  },
  {
    "title":"OldBoy Санкт-Петербург",
    "lat":"59.858043",
    "lng":"30.390752",
    "address": "пр. Славы, 43/39",
    "city": "Санкт-Петербург",
    "phone": "8(977)-900-11-01",
    "id": "89"
  },
  {
    "title":"OldBoy Королев",
    "lat":"55.917221",
    "lng":"37.842097",
    "address": "Октябрьский бульвар, 22",
    "city": "Московская область",
    "phone": "8(966)-121-88-81",
    "id": "90"
  },
  {
    "title":"OldBoy Симферополь",
    "lat":"44.957407",
    "lng":"34.085678",
    "address": "ул. Дзюбанова, 2А",
    "city": "Симферополь",
    "phone": "8(978)-145-07-06",
    "id": "91"
  },
  {
    "title":"OldBoy Москва",
    "lat":"55.639625",
    "lng":"37.353499",
    "address": "Боровское шоссе, 36",
    "city": "Москва",
    "phone": "8(495)-374-91-40",
    "id": "92"
  },
  {
    "title":"OldBoy Оренбург",
    "lat":"51.763750",
    "lng":"55.097067",
    "address": "ул. 9 января, 45",
    "city": "Оренбург",
    "phone": "97-40-87",
    "id": "93"
  },
  {
    "title":"OldBoy Армавир",
    "lat":"44.990233",
    "lng":"41.101390",
    "address": "ул. Ефремова 123/5",
    "city": "Армавир",
    "phone": "8(952)-828-65-65",
    "id": "94"
  },
  {
    "title":"OldBoy Атырау",
    "lat":"47.102549",
    "lng":"51.925707",
    "address": "ул. Гурьевская 1",
    "city": "Атырау",
    "phone": "8(701)-830-00-38",
    "id": "95"
  },
  {
    "title":"OldBoy Барнаул",
    "lat":"53.338813",
    "lng":"83.786203",
    "address": "пр. Ленина, 29",
    "city": "Барнаул",
    "phone": "8(385)-253-20-25",
    "id": "96"
  },
  {
    "title":"OldBoy Нижневартовск",
    "lat":"60.932809",
    "lng":"76.586478",
    "address": "ул. Омская, 38",
    "city": "Нижневартовск",
    "phone": "63-68-83",
    "id": "97"
  },
  {
    "title":"OldBoy Усть-Каменогорск",
    "lat":"49.947154",
    "lng":"82.667777",
    "address": "ул. Бурова, 18",
    "city": "Усть-Каменогорск",
    "phone": "8(776)-448-88-47",
    "id": "98"
  },
  {
    "title":"OldBoy Ярославль",
    "lat":"55.798863",
    "lng":"37.467752",
    "address": "ул. Максимова, 12",
    "city": "Ярославль",
    "phone": "725-525",
    "id": "99"
  },
  {
    "title":"OldBoy Ставрополь",
    "lat":"45.012703",
    "lng":"41.931325",
    "address": "ул. Космонавтов, 2",
    "city": "Ставрополь",
    "phone": "69-69-49",
    "id": "100"
  },
  {
    "title":"OldBoy Домодедово",
    "lat":"55.424663",
    "lng":"37.758711",
    "address": "ул. Дружбы, 2",
    "city": "Домодедово",
    "phone": "8(929)-606-50-55",
    "id": "101"
  },
  {
    "title":"OldBoy Сочи",
    "lat":"43.672890",
    "lng":"40.290733",
    "address": "наб. Лаванды, 2",
    "city": "Сочи",
    "phone": "8(928)-448-99-08",
    "id": "102"
  },
  {
    "title":"OldBoy Химки",
    "lat":"55.892992",
    "lng":"37.345794",
    "address": "ул. Соколовская, вл. 3",
    "city": "Химки",
    "phone": "8(925)-218-43-43",
    "id": "103"
  },
  {
    "title":"OldBoy Сургут",
    "lat":"61.257494",
    "lng":"73.419625",
    "address": "пр. Мира, 47/2",
    "city": "Сургут",
    "phone": "8(925)-218-43-43",
    "id": "103"
  },
  {
    "title":"OldBoy Бишкек",
    "lat":"42.887599",
    "lng":"74.599424",
    "address": "ул. Логвиненко, 51",
    "city": "Бишкек",
    "phone": "+996-(703)-701-701",
    "id": "104"
  },
  {
    "title":"OldBoy Грозный",
    "lat":"43.331065",
    "lng":"46.123258",
    "address": "пр. Махумуда Эсамбаева, 5",
    "city": "Грозный",
    "phone": "+996-(703)-701-701",
    "id": "105"
  },
  {
    "title":"OldBoy Астана",
    "lat":"51.163423",
    "lng":"71.435875",
    "address": "ул. Иманова, 16",
    "city": "Астана",
    "phone": "8(702)-555-85-70",
    "id": "106"
  },
  {
    "title":"OldBoy Астана",
    "lat":"51.163423",
    "lng":"71.435875",
    "address": "ул. Амман, 2",
    "city": "Астана",
    "phone": "20-36-70",
    "id": "107"
  },
  {
    "title":"OldBoy Махачкала",
    "lat":"42.980332",
    "lng":"47.492154",
    "address": "ул. Танкаева, 15",
    "city": "Махачкала",
    "phone": "93-67-68",
    "id": "107"
  },
  {
    "title":"OldBoy Москва",
    "lat":"55.764402",
    "lng":"37.653705",
    "address": "ул. Машкова, 24",
    "city": "Москва",
    "phone": "8(925)-579-579-5",
    "id": "108"
  },
  {
    "title":"OldBoy Москва",
    "lat":"55.726633",
    "lng":"37.680273",
    "address": "пр. Волгоградский, 26а",
    "city": "Москва",
    "phone": "8(499)-755-88-67",
    "id": "109"
  },
  {
    "title":"OldBoy Москва",
    "lat":"55.792070",
    "lng":"37.486522",
    "address": "ул. Маршала Вершинина, 8К.1",
    "city": "Москва",
    "phone": "8(495)-120-10-63",
    "id": "110"
  },
  {
    "title":"OldBoy Москва",
    "lat":"55.817449",
    "lng":"37.593107",
    "address": "ул. Добролюбова, 20",
    "city": "Москва",
    "phone": "8(916)-274-44-88",
    "id": "111"
  },
  {
    "title":"OldBoy Мурманск",
    "lat":"68.961664",
    "lng":"33.064026",
    "address": "ул. Шмидта, 33А",
    "city": "Мурманск",
    "phone": "70-78-70",
    "id": "112"
  },
  {
    "title":"OldBoy Нижний Новгород",
    "lat":"56.296135",
    "lng":"44.039646",
    "address": "Советская площадь, 5",
    "city": "Нижний Новгород",
    "phone": "8(831)-424-44-40",
    "id": "113"
  },
  {
    "title":"OldBoy Набережные Челны",
    "lat":"55.757291",
    "lng":"52.405103",
    "address": "пр. Вахитова, 54а",
    "city": "Набережные Челны",
    "phone": "8(927)-048-08-36",
    "id": "114"
  },
  {
    "title":"OldBoy Набережные Челны",
    "lat":"55.757291",
    "lng":"52.405103",
    "address": "пр. Вахитова, 54а",
    "city": "Набережные Челны",
    "phone": "8(927)-048-08-36",
    "id": "114"
  },
  {
    "title":"OldBoy Москва",
    "lat":"55.854213",
    "lng":"37.565153",
    "address": "Дмитровское шоссе, 62С5",
    "city": "Москва",
    "phone": "8(925)-433-11-23",
    "id": "115"
  }

  


]